OrganisationName,Sector,ParentName,Address1,Address2,Address3,City,Postcode,Website,LAD19CD,MSOA11CD,Longitude,Latitude
Orthopaedics and Spine Specialist Hospital,Independent Sector,Orthopaedics and Spine Specialist Hospital,1 Stirling Way,Bretton,NA,Peterborough,PE3 8YA,NA,E06000031,E02003245,-0.28302180767059326,52.604942321777344
Mount Gould Hospital,Independent Sector,Livewell Southwest,NA,Mount Gould Road,NA,Plymouth,PL4 7QD,https://www.livewellsouthwest.co.uk/,E06000026,E02003142,-4.112740516662598,50.37840270996094
Spire Elland Hospital,Independent Sector,Spire Healthcare,Elland Lane,NA,NA,Elland,HX5 9EB,https://www.spirehealthcare.com/spire-elland-hospital/,E08000033,E02002268,-1.8289133310317993,53.688777923583984
BMI The Highfield Hospital,Independent Sector,BMI Healthcare,NA,Manchester Road,NA,Rochdale,OL11 4LZ,https://www.bmihealthcare.co.uk/hospitals/bmi-the-highfield-hospital,E08000005,E02001141,-2.167490243911743,53.60650634765625
BMI The Meriden Hospital,Independent Sector,BMI Healthcare,University Hospital Site,Clifford Bridge Road,NA,Coventry,CV2 2LQ,https://www.bmihealthcare.co.uk/hospitals/bmi-the-meriden-hospital,E08000026,E02001976,-1.4383885860443115,52.42121505737305
St Hugh's Hospital,Independent Sector,Claremont & St Hugh's Hospitals (Hmt),Peaks Lane,NA,NA,Grimsby,DN32 9RP,http://www.sthughshospital.co.uk,E06000012,E02002737,-0.0738050788640976,53.55105209350586
Southampton NHS Treatment Centre,Independent Sector,Care UK,c/o Care UK - Level C,Southampton NHS Treatment Centre,Brintons Terrace,Southampton,SO14 0YG,http://www.southamptontreatmentcentre.nhs.uk,E06000045,E02003570,-1.3970624208450317,50.912391662597656
Optegra Eye Hospital Birmingham,Independent Sector,Optegra UK,NA,Coleshill Street,NA,Birmingham,B4 7ET,https://www.optegra.com,E08000025,E02001876,-1.8909375667572021,52.48664093017578
Mount Stuart Hospital,Independent Sector,Ramsay Healthcare UK Operations Limited,St. Vincents Road,NA,NA,Torquay,TQ1 4UP,http://www.mountstuarthospital.co.uk,E06000027,E02003157,-3.541743516921997,50.47509765625
Oaklands Hospital,Independent Sector,Ramsay Healthcare UK Operations Limited,19 Lancaster Road,NA,NA,Salford,M6 8AQ,http://www.oaklands-hospital.co.uk,E08000006,E02001177,-2.321049213409424,53.49230194091797
West Midlands Hospital,Independent Sector,Ramsay Healthcare UK Operations Limited,Colman Hill,NA,NA,Halesowen,B63 2AH,http://www.westmidlandshospital.co.uk,E08000027,E02002032,-2.076659679412842,52.45781707763672
Winfield Hospital,Independent Sector,Ramsay Healthcare UK Operations Limited,Tewkesbury Road,Longford,NA,Gloucester,GL2 9WH,http://www.winfieldhospital.co.uk,E07000081,E02004637,-2.2424166202545166,51.88044357299805
Yeovil District Hospital,NHS Sector,Yeovil District Hospital NHS Foundation Trust,Higher Kingston,NA,NA,Yeovil,BA21 4AT,http://www.yeovilhospital.nhs.uk/,E07000189,E02006088,-2.6346983909606934,50.944847106933594
Paignton Health and Welllbeing Centre,NHS Sector,Torbay and South Devon NHS Foundation Trust,Church Street,NA,NA,Paignton,TQ3 3AG,https://www.torbayandsouthdevon.nhs.uk/visiting-us/paignton-health-and-wellbeing-centre/,E06000027,E02003167,-3.56878662109375,50.4371452331543
Bradford Royal Infirmary,NHS Sector,Bradford Teaching Hospitals NHS Foundation Trust,NA,Duckworth Lane,NA,Bradford,BD9 6RJ,http://www.bradfordhospitals.nhs.uk,E08000032,E02002219,-1.7946816682815552,53.80598449707031
St Lukes Hospital,NHS Sector,Bradford Teaching Hospitals NHS Foundation Trust,NA,Little Horton Lane,NA,Bradford,BD5 0NA,http://www.bradfordhospitals.nhs.uk,E08000032,E02002230,-1.7609779834747314,53.783485412597656
Eccleshill Community Hospital,NHS Sector,Bradford Teaching Hospitals NHS Foundation Trust,NA,450 Harrogate Road,Eccleshill,Bradford,BD10 0JE,NA,E08000032,E02002209,-1.7121117115020752,53.82307815551758
North Middlesex University Hospital,NHS Sector,North Middlesex University Hospital NHS Trust,NA,Sterling Way,NA,London,N18 1QX,http://www.northmid.nhs.uk,E09000010,E02006793,-0.07373514026403427,51.613094329833984
Manor Hospital,NHS Sector,Walsall Healthcare NHS Trust,NA,Moat Road,NA,Walsall,WS2 9PS,http://www.walsallhealthcare.nhs.uk,E08000030,E02002135,-1.9989091157913208,52.582332611083984
Arrowe Park Hospital,NHS Sector,Wirral University Teaching Hospital NHS Foundation Trust,Arrowe Park Road,NA,Upton,Wirral,CH49 5PE,http://www.wuth.nhs.uk,E08000015,E02001491,-3.0968008041381836,53.36962890625
St Helens Hospital,NHS Sector,St Helens and Knowsley Hospitals NHS Trust,Marshalls Cross Road,NA,NA,St. Helens,WA9 3DA,http://www.sthk.nhs.uk,E08000013,E02001419,-2.7188868522644043,53.43953323364258
Liverpool Heart and Chest Hospital,NHS Sector,Liverpool Heart and Chest NHS Foundation Trust,NA,Thomas Drive,NA,Liverpool,L14 3PE,http://www.lhch.nhs.uk,E08000012,E02001372,-2.897974729537964,53.411155700683594
Alder Hey Children's NHS Foundation Trust,NHS Sector,Alder Hey Children's NHS Foundation Trust,Alder Hey Children's Hospital,Eaton Road,NA,Liverpool,L12 2AP,http://www.alderhey.nhs.uk,E08000012,E02001375,-2.8977315425872803,53.41930389404297
Luton and Dunstable Hospital,NHS Sector,Luton and Dunstable University Hospital NHS Foundation Trust,NA,Lewsey Road,NA,Luton,LU4 0DZ,https://www.ldh.nhs.uk/,E06000032,E02003270,-0.47441545128822327,51.89414596557617
Weymouth Community Hospital,NHS Sector,Dorset Healthcare University NHS Foundation Trust,Weymouth Community Hospital,3 Melcombe Avenue,NA,Weymouth,DT4 7TB,https://www.dorsethealthcare.nhs.uk/patients-and-visitors/our-services-hospitals/community-hospitals,E06000059,E02004284,-2.450997829437256,50.62104034423828
South Tyneside District Hospital,NHS Sector,South Tyneside NHS Foundation Trust,Harton Lane,NA,NA,South Shields,NE34 0PL,http://www.stft.nhs.uk/,E08000023,E02001778,-1.4282100200653076,54.97197341918945
Palmer Community Hospital,NHS Sector,South Tyneside NHS Foundation Trust,Wear Street,NA,NA,Jarrow,NE32 3UX,http://www.stft.nhs.uk/,E08000023,E02001774,-1.4919613599777222,54.98065948486328
Aintree University Hospital,NHS Sector,Liverpool University Hospitals NHS Foundation Trust,Aintree University Hospital,Lower Lane,NA,Liverpool,L9 7AL,http://www.aintreehospital.nhs.uk,E08000012,E02001351,-2.931089401245117,53.46632766723633
Royal Liverpool University Hospital,NHS Sector,Liverpool University Hospitals NHS Foundation Trust,Prescot Street,NA,NA,Liverpool,L7 8XP,NA,E08000012,E02001377,-2.964794158935547,53.40951156616211
Liverpool Women's NHS Foundation Trust,NHS Sector,Liverpool Women's NHS Foundation Trust,NA,Crown Street,NA,Liverpool,L8 7SS,http://www.liverpoolwomens.nhs.uk/,E08000012,E02001377,-2.9600625038146973,53.39846420288086
The Walton Centre ,NHS Sector,The Walton Centre NHS Foundation Trust,Lower Lane,Fazakerley,NA,Liverpool,L9 7LJ,http://www.thewaltoncentre.nhs.uk,E08000012,E02001351,-2.930985450744629,53.466400146484375
Becklin Centre,NHS Sector,Leeds and York Partnership NHS Foundation Trust,Alma Street,NA,NA,Leeds,LS9 7BE,http://www.leedsandyorkpft.nhs.uk/home,E08000035,E02002393,-1.5244771242141724,53.80526351928711
James Paget University Hospital,NHS Sector,James Paget University Hospitals NHS Foundation Trust,Lowestoft Road,Gorleston,NA,Great Yarmouth,NR31 6LA,http://www.jpaget.nhs.uk/,E07000145,E02005548,1.7179944515228271,52.561668395996094
West Suffolk Hospital,NHS Sector,West Suffolk NHS Foundation Trust,Hardwick Lane,Hardwick Lane,NA,Bury St. Edmunds,IP33 2QZ,http://www.wsh.nhs.uk,E07000245,E02006281,0.7091901898384094,52.23166275024414
Princess Anne Hospital,NHS Sector,University Hospital Southampton NHS Foundation Trust,NA,Coxford Road,NA,Southampton,SO16 5YA,http://www.uhs.nhs.uk,E06000045,E02003550,-1.4348493814468384,50.93526077270508
Northern General Hospital,NHS Sector,Sheffield Teaching Hospitals NHS Foundation Trust,NA,Northern General Hospital,Herries Road,Sheffield,S5 7AU,http://www.sth.nhs.uk/,E08000019,E02001630,-1.46087646484375,53.408878326416016
St Mary,NHS Sector,Portsmouth Hospitals NHS Trust,West Wing,Milton Road,NA,Portsmouth,PO3 6AD,http://www.porthosp.nhs.uk,E06000044,E02003540,-1.0632067918777466,50.800209045410156
Queen Alexandra Hospital,NHS Sector,Portsmouth Hospitals NHS Trust,Southwick Hill Road,Cosham,NA,Portsmouth,PO6 3LY,http://www.porthosp.nhs.uk,E06000044,E02003525,-1.0699176788330078,50.85029983520508
Croydon University Hospital,NHS Sector,Croydon Health Services NHS Trust,NA,530 London Road,NA,Thornton Heath,CR7 7YE,http://www.croydonhealthservices.nhs.uk/,E09000008,E02000208,-0.10876881331205368,51.389129638671875
"Diana, Princess Of Wales Hospital",NHS Sector,Northern Lincolnshire and Goole NHS Foundation Trust,Scartho Road,NA,NA,Grimsby,DN33 2BA,http://www.nlg.nhs.uk/hospitals/grimsby,E06000012,E02002741,-0.09621349722146988,53.544857025146484
Mansfield Community Hospital,NHS Sector,Sherwood Forest Hospitals NHS Foundation Trust,Stockwell Gate,NA,NA,Mansfield,NG18 5QJ,http://www.sfh-tr.nhs.uk,E07000174,E02005887,-1.2062666416168213,53.141361236572266
University Hospital (Coventry),NHS Sector,University Hospitals Coventry and Warwickshire NHS Trust,Clifford Bridge Road,NA,NA,Coventry,CV2 2DX,http://www.uhcw.nhs.uk,E08000026,E02001976,-1.4383885860443115,52.42121505737305
New Cross Hospital,NHS Sector,The Royal Wolverhampton NHS Trust,Wolverhampton Road,Heath Town,NA,Wolverhampton,WV10 0QP,http://www.royalwolverhampton.nhs.uk/,E08000031,E02002163,-2.0955405235290527,52.599727630615234
Leominster Community Hospital,NHS Sector,Wye Valley NHS Trust,"Leominster Community Hospital, Wye Valley NHS Trust",South Street,NA,Leominster,HR6 8JH,http://www.wyevalley.nhs.uk,E06000019,E02002907,-2.7393603324890137,52.22218704223633
Salford Royal,NHS Sector,Salford Royal NHS Foundation Trust,NA,Stott Lane,NA,Salford,M6 8HD,http://www.srft.nhs.uk,E08000006,E02001177,-2.3234095573425293,53.487548828125
"Northgate Hospital, Gt Yarmouth",NHS Sector,Norfolk and Suffolk NHS Foundation Trust,Northgate Street,NA,NA,Great Yarmouth,NR30 1BU,http://www.nwmhp.nhs.uk,E07000145,E02005541,1.7300249338150024,52.61727523803711
Chippenham Community Hospital,NHS Sector,Great Western Hospitals NHS Foundation Trust,NA,Rowden Hill,NA,Chippenham,SN15 2AJ,http://www.gwh.nhs.uk,E06000054,E02006654,-2.126694917678833,51.45254135131836
Russells Hall Hospital,NHS Sector,The Dudley Group NHS Foundation Trust,Pensnett Road,NA,NA,Dudley,DY1 2HQ,http://www.dudleygroup.nhs.uk,E08000027,E02002012,-2.1185030937194824,52.50294876098633
Guest Hospital,NHS Sector,The Dudley Group NHS Foundation Trust,Tipton Road,NA,NA,Dudley,DY1 4SE,http://www.dgh.nhs.uk,E08000027,E02002005,-2.0727152824401855,52.52050018310547
Corbett Hospital,NHS Sector,The Dudley Group NHS Foundation Trust,Vicarage Road,NA,NA,Stourbridge,DY8 4JB,http://www.dgh.nhs.uk,E08000027,E02002030,-2.146383285522461,52.46540832519531
Kettering General Hospital,NHS Sector,Kettering General Hospital NHS Foundation Trust,NA,Rothwell Road,NA,Kettering,NN16 8UZ,http://www.kgh.nhs.uk,E07000153,E02005645,-0.741529107093811,52.401145935058594
St Mary's Hospital,NHS Sector,Northamptonshire Healthcare NHS Foundation Trust,77 London Road,NA,NA,Kettering,NN15 7PW,http://www.nhft.nhs.uk,E07000153,E02005647,-0.7221850156784058,52.394100189208984
Montagu Hospital,NHS Sector,Doncaster and Bassetlaw Teaching Hospitals NHS Foundation Trust,Adwick Road,NA,NA,Mexborough,S64 0AZ,http://www.dbh.nhs.uk,E08000017,E02001569,-1.2849314212799072,53.49981689453125
Manthorpe Centre,NHS Sector,Lincolnshire Partnership NHS Foundation Trust,Manthorpe Centre,Grantham Hospital Site,NA,101 Manthorpe Road,NG31 8DG,NA,E07000141,E02005478,-0.6406991481781006,52.92108917236328
Birmingham Children's Hospital,NHS Sector,Birmingham Women's and Children's NHS Foundation Trust,NA,Steelhouse Lane,NA,Birmingham,B4 6NH,http://www.bwc.nhs.uk,E08000025,E02001876,-1.8937397003173828,52.48489761352539
Homerton University Hospital,NHS Sector,Homerton University Hospital NHS Foundation Trust,Homerton Row,Homerton Row,NA,London,E9 6SR,http://www.homerton.nhs.uk,E09000012,E02000363,-0.04608435556292534,51.55063247680664
St James's Hospital,NHS Sector,Leeds Teaching Hospitals NHS Trust,Beckett Street,NA,NA,Leeds,LS9 7TF,http://www.leedsth.nhs.uk,E08000035,E02002393,-1.5203437805175781,53.8068733215332
Chapel Allerton Hospital,NHS Sector,Leeds Teaching Hospitals NHS Trust,Chapeltown Road,NA,NA,Leeds,LS7 4SA,http://www.leedsth.nhs.uk,E08000035,E02002371,-1.5297948122024536,53.82263946533203
Royal Orthopaedic Hospital,NHS Sector,The Royal Orthopaedic Hospital NHS Foundation Trust,The Woodlands,Bristol Road South,Northfield,Birmingham,B31 2AP,http://www.roh.nhs.uk/,E08000025,E02001939,-1.9608128070831299,52.421138763427734
Queen Elizabeth Hospital Birmingham,NHS Sector,University Hospitals Birmingham NHS Foundation Trust,Mindelsohn Way,Edgbaston,NA,Birmingham,B15 2WB,http://www.uhb.nhs.uk,E08000025,E02001913,-1.94176185131073,52.45014953613281
Gloucestershire Royal Hospital,NHS Sector,Gloucestershire Hospitals NHS Foundation Trust,NA,Great Western Road,NA,Gloucester,GL1 3NN,http://www.gloshospitals.nhs.uk,E07000081,E02004637,-2.232058525085449,51.86638259887695
London Road Community Hospital,NHS Sector,University Hospital of Derby and Burton NHS Foundation Trust,NA,London Road,NA,Derby,DE1 2QY,http://www.derbyhospitals.nhs.uk,E06000015,E02002813,-1.4686318635940552,52.9143180847168
The James Cook University Hospital,NHS Sector,South Tees Hospitals NHS Foundation Trust,Marton Road,NA,NA,Middlesbrough,TS4 3BW,https://www.southtees.nhs.uk/,E06000002,E02002506,-1.2147899866104126,54.5517578125
Newbridges - Inpatient Unit,NHS Sector,Humber Teaching NHS Foundation Trust,NA,Birkdale Way,Newbridge Road,Hull,HU9 2BH,http://www.humber.nhs.uk,E06000010,E02002673,-0.30832526087760925,53.74993896484375
Maister Lodge - Inpatient Unit,NHS Sector,Humber Teaching NHS Foundation Trust,NA,Hauxwell Road,NA,Hull,HU8 0RB,http://www.humber.nhs.uk,E06000010,E02002662,-0.2866002917289734,53.77357864379883
Avondale Assessment Unit and Psychiatric Intensive Care Unit,NHS Sector,Humber Teaching NHS Foundation Trust,NA,Gladstone Street,Anlaby Road,Hull,HU3 2RT,http://www.humber.nhs.uk,E06000010,E02002680,-0.3621857762336731,53.74435806274414
Cossham Hospital,NHS Sector,North Bristol NHS Trust,NA,Lodge Road,Kingswood,Bristol,BS15 1LF,http://www.nbt.nhs.uk,E06000023,E02003029,-2.5161056518554687,51.46889114379883
St Helier Hospital,NHS Sector,Epsom and St Helier University Hospitals NHS Trust,Wrythe Lane,NA,NA,Carshalton,SM5 1AA,http://www.epsom-sthelier.nhs.uk,E09000029,E02000841,-0.18362735211849213,51.380313873291016
Queen Mary's Hospital For Children,NHS Sector,Epsom and St Helier University Hospitals NHS Trust,Wrythe Lane,NA,NA,Carshalton,SM5 1AA,http://www.epsom-sthelier.nhs.uk,E09000029,E02000841,-0.18362735211849213,51.380313873291016
Queen Elizabeth The Queen Mother Hospital,NHS Sector,East Kent Hospitals University NHS Foundation Trust,Queen Elizabeth The Queen Mother Hospital,St Peters Road,NA,Margate,CT9 4AN,http://www.ekhuft.nhs.uk/qeqm,E07000114,E02005135,1.3893986940383911,51.3780517578125
University Hospital Of Hartlepool,NHS Sector,North Tees and Hartlepool NHS Foundation Trust,Holdforth Road,NA,NA,Hartlepool,TS24 9AH,http://www.nth.nhs.uk,E06000001,E02002484,-1.2278211116790771,54.70240020751953
University Hospital Of North Tees,NHS Sector,North Tees and Hartlepool NHS Foundation Trust,Hardwick Road,NA,NA,Stockton-on-Tees,TS19 8PE,http://www.nth.nhs.uk,E06000004,E02002543,-1.3475654125213623,54.58285903930664
Ribbleton Hospital,NHS Sector,Lancashire & South Cumbria NHS Foundation Trust,Miller Road,Ribbleton,NA,Preston,PR2 6LS,NA,E07000123,E02005261,-2.6575794219970703,53.77164840698242
Queen Victoria Hospital,NHS Sector,Lancashire & South Cumbria NHS Foundation Trust,Thornton Road,NA,NA,Morecambe,LA4 5NN,NA,E07000121,E02005226,-2.8586182594299316,54.072872161865234
Fairfield General Hospital,NHS Sector,Pennine Acute Hospitals NHS Trust,Fairfield General Hospital,Rochdale Old Road,NA,Bury,BL9 7TD,http://www.pat.nhs.uk,E08000002,E02001025,-2.255607843399048,53.600425720214844
North Manchester General Hospital,NHS Sector,Pennine Acute Hospitals NHS Trust,Delaunays Road,Crumpsall,NA,Manchester,M8 5RB,http://www.pat.nhs.uk,E08000003,E02001050,-2.2294869422912598,53.517887115478516
Royal Oldham Hospital,NHS Sector,Pennine Acute Hospitals NHS Trust,Rochdale Road,NA,NA,Oldham,OL1 2JH,http://www.pat.nhs.uk,E08000004,E02001113,-2.1218161582946777,53.553253173828125
Rochdale Infirmary,NHS Sector,Pennine Acute Hospitals NHS Trust,Whitehall Street,NA,NA,Rochdale,OL12 0NB,http://www.pat.nhs.uk,E08000005,E02001141,-2.1601369380950928,53.62428665161133
Birch Hill Hospital (Floyd Unit),NHS Sector,Pennine Acute Hospitals NHS Trust,Birch Hill Hospital,Birch Road,Wardle,Rochdale,OL12 9QB,http://www.pat.nhs.uk,E08000005,E02001135,-2.1213715076446533,53.64026641845703
Hull Royal Infirmary,NHS Sector,Hull University Teaching Hospitals NHS Trust,Anlaby Road,NA,NA,Hull,HU3 2JZ,https://www.hull.nhs.uk/,E06000010,E02002675,-0.35816898941993713,53.74443435668945
Grantham and District Hospital,NHS Sector,United Lincolnshire Hospitals NHS Trust,NA,Manthorpe Road,NA,Grantham,NG31 8DG,http://www.ulh.nhs.uk,E07000141,E02005478,-0.6406991481781006,52.92108917236328
Glenfield Hospital,NHS Sector,University Hospitals Of Leicester NHS Trust,NA,Groby Road,NA,Leicester,LE3 9QP,http://www.leicestershospitals.nhs.uk,E06000016,E02002830,-1.180003046989441,52.65436553955078
Leicester General Hospital,NHS Sector,University Hospitals Of Leicester NHS Trust,NA,Gwendolen Road,NA,Leicester,LE5 4PW,http://www.leicestershospitals.nhs.uk,E06000016,E02002845,-1.0817492008209229,52.62992858886719
Kidderminster Hospital & Treatment Centre,NHS Sector,Worcestershire Acute Hospitals NHS Trust,NA,Bewdley Road,NA,Kidderminster,DY11 6RJ,http://www.worcsacute.nhs.uk/our-hospitals/kidderminster-hospital-and-treatment-centre,E07000239,E02006774,-2.261321783065796,52.38517379760742
Halton General Hospital,NHS Sector,Warrington and Halton Hospitals NHS Foundation Trust,NA,Hospital Way,NA,Runcorn,WA7 2DA,http://www.whh.nhs.uk,E06000006,E02002588,-2.6946661472320557,53.323272705078125
"Sandwell Park Hospital, Hartlepool",NHS Sector,"Tees, Esk and Wear Valleys NHS Foundation Trust",NA,Lancaster Road,NA,Hartlepool,TS24 8LN,http://www.tewv.nhs.uk/sandwellpark,E06000001,E02002485,-1.2123247385025024,54.693267822265625
Monkwearmouth Hospital,NHS Sector,Cumbria Northumberland Tyne and Wear NHS Foundation Trust,Monkwearmouth Hospital,Newcastle Road,NA,Sunderland,SR5 1NB,https://www.cntw.nhs.uk,E08000024,E02001795,-1.3867692947387695,54.9245491027832
Pinderfields Hospital,NHS Sector,Mid Yorkshire Hospitals NHS Trust,Pinderfields Hospital,Aberford Road,NA,Wakefield,WF1 4DG,http://www.midyorks.nhs.uk,E08000036,E02002454,-1.4885402917861938,53.692420959472656
Dewsbury and District Hospital,NHS Sector,Mid Yorkshire Hospitals NHS Trust,NA,Halifax Road,NA,Dewsbury,WF13 4HS,http://www.midyorks.nhs.uk,E08000034,E02002286,-1.6518619060516357,53.70225524902344
Brighton General Hospital,NHS Sector,Brighton and Sussex University Hospitals NHS Trust,Elm Grove,NA,NA,Brighton,BN2 3EW,http://www.sussexcommunity.nhs.uk/,E06000043,E02003515,-0.11546260118484497,50.83045959472656
Sandwell District General Hospital,NHS Sector,Sandwell and West Birmingham Hospitals NHS Trust,Lyndon,NA,NA,West Bromwich,B71 4HJ,http://www.swbh.nhs.uk,E08000028,E02002059,-1.988857388496399,52.528079986572266
City Hospital,NHS Sector,Sandwell and West Birmingham Hospitals NHS Trust,Dudley Road,Dudley Road,NA,Birmingham,B18 7QH,http://www.swbh.nhs.uk,E08000025,E02001879,-1.9324921369552612,52.48863220214844
Rowley Regis Hospital,NHS Sector,Sandwell and West Birmingham Hospitals NHS Trust,Moor Lane,NA,NA,Rowley Regis,B65 8DA,http://www.swbh.nhs.uk/,E08000028,E02002075,-2.052065849304199,52.4807014465332
Lancashire Bowel Cancer Screening Programme - Fleetwood Hospital,NHS Sector,Blackpool Teaching Hospitals NHS Foundation Trust,NA,Pharos Street,NA,Fleetwood,FY7 6BE,NA,E07000128,E02005319,-3.009324550628662,53.92620086669922
Burnley General Hospital,NHS Sector,East Lancashire Hospitals NHS Trust,Burnley General Hospital,Casterton Avenue,NA,Burnley,BB10 2PQ,http://www.elht.nhs.uk,E07000117,E02005177,-2.2278640270233154,53.810428619384766
Royal Blackburn Hospital,NHS Sector,East Lancashire Hospitals NHS Trust,Haslingden Road,Haslingden Road,NA,Blackburn,BB2 3HH,http://www.elht.nhs.uk,E06000008,E02002625,-2.4627013206481934,53.735565185546875
Pendle Community Hospital,NHS Sector,East Lancashire Hospitals NHS Trust,Leeds Road,Leeds Rd,NA,Nelson,BB9 9SZ,http://www.elht.nhs.uk,E07000122,E02005248,-2.213982343673706,53.83698654174805
Accrington Victoria Hospital,NHS Sector,East Lancashire Hospitals NHS Trust,Accrington Victoria Community Hospital,Haywood Road,NA,Accrington,BB5 6AS,http://www.elht.nhs.uk,E07000120,E02005215,-2.3669064044952393,53.759586334228516
Ardenleigh,NHS Sector,Birmingham and Solihull Mental Health NHS Foundation Trust,385 Kingsbury Road,Erdington,NA,Birmingham,B24 9SA,http://www.bsmhft.nhs.uk,E08000025,E02001857,-1.8346412181854248,52.5174560546875
Ashcroft,NHS Sector,Birmingham and Solihull Mental Health NHS Foundation Trust,Ashcroft Complex Care Unit,The Moorings,Hockley,Birmingham,B18 5SD,http://www.bsmht.nhs.uk,E08000025,E02001873,-1.929878830909729,52.492835998535156
Endeavour Court,NHS Sector,Birmingham and Solihull Mental Health NHS Foundation Trust,NA,210 Reservoir Road,Erdington,Birmingham,B23 6DJ,http://www.bsmhft.nhs.uk,E08000025,E02001852,-1.8573148250579834,52.52388381958008
Grove Avenue,NHS Sector,Birmingham and Solihull Mental Health NHS Foundation Trust,NA,32 Grove Avenue,Moseley,Birmingham,B13 9RY,http://www.bsmhft.nhs.uk,E08000025,E02001918,-1.883678913116455,52.44133377075195
Hertford House,NHS Sector,Birmingham and Solihull Mental Health NHS Foundation Trust,NA,29 Old Warwick Road,Olton,Solihull,B92 7JQ,http://www.bsmht.nhs.uk,E08000029,E02002093,-1.8080466985702515,52.43833923339844
Hillis Lodge,NHS Sector,Birmingham and Solihull Mental Health NHS Foundation Trust,Hollymoor Way,Northfield,NA,Birmingham,B31 5HE,http://www.bsmht.nhs.uk,E08000025,E02001955,-1.9936208724975586,52.403926849365234
Mary Seacole House,NHS Sector,Birmingham and Solihull Mental Health NHS Foundation Trust,NA,Lodge Road,Winson Green,Birmingham,B18 5SD,https://www.bsmhft.nhs.uk/,E08000025,E02001873,-1.929878830909729,52.492835998535156
Reservoir Court,NHS Sector,Birmingham and Solihull Mental Health NHS Foundation Trust,NA,220 Reservoir Road,Erdington,Birmingham,B23 6DJ,http://www.bsmhft.nhs.uk,E08000025,E02001852,-1.8573148250579834,52.52388381958008
Zinnia Centre,NHS Sector,Birmingham and Solihull Mental Health NHS Foundation Trust,NA,100 Showell Green Lane,NA,Birmingham,B11 4HL,https://www.bsmhft.nhs.uk/,E08000025,E02006901,-1.8674589395523071,52.44896697998047
Barberry ,NHS Sector,Birmingham and Solihull Mental Health NHS Foundation Trust,NA,25 Vincent Drive,NA,Birmingham,B15 2FG,https://www.bsmhft.nhs.uk/,E08000025,E02001913,-1.9423142671585083,52.44923400878906
Oleaster,NHS Sector,Birmingham and Solihull Mental Health NHS Foundation Trust,NA,6 Mindelsohn Crescent,Edgbaston,Birmingham,B15 2SY,https://www.bsmhft.nhs.uk/,E08000025,E02001913,-1.940764307975769,52.44791793823242
Juniper Centre,NHS Sector,Birmingham and Solihull Mental Health NHS Foundation Trust,NA,"Moseley Hall Hospital site, Alcester Road",Moseley,Birmingham,B13 8JL,https://www.bsmhft.nhs.uk/,E08000025,E02001918,-1.8928769826889038,52.445926666259766
Prestwich Hospital,NHS Sector,Greater Manchester Mental Health NHS Foundation Trust,Bury New Road,Prestwich,NA,Manchester,M25 3BL,https://www.gmmh.nhs.uk/,E08000002,E02001040,-2.2914507389068604,53.53675079345703
Skegness and District General Hospital,NHS Sector,Lincolnshire Community Health Services NHS Trust,NA,Dorothy Avenue,NA,Skegness,PE25 2BS,http://www.lincolnshirecommunityhealthservices.nhs.uk/content/skegness-hospital,E07000137,E02005437,0.33227235078811646,53.145179748535156
John Coupland Hospital,NHS Sector,Lincolnshire Community Health Services NHS Trust,NA,Ropery Road,NA,Gainsborough,DN21 2TJ,http://www.lincolnshirecommunityhealthservices.nhs.uk/content/john-coupland-hospital,E07000142,E02005495,-0.7847763895988464,53.41184616088867
Clay Cross Hospital,NHS Sector,Derbyshire Community Health Services NHS Foundation Trust,NA,Market Street,NA,Chesterfield,S45 9NZ,http://www.dchs.nhs.uk/home_redesign/our-services/find_services_by_location/claycross_hospital/,E07000038,E02004116,-1.4072117805480957,53.16793441772461
Brooklands Hospital,NHS Sector,Coventry and Warwickshire Partnership NHS Trust,Coleshill Road,Marston Green,NA,Birmingham,B37 7HL,https://www.covwarkpt.nhs.uk/brooklands,E08000029,E02002089,-1.74408757686615,52.4712028503418
Hammersmith Hospital,NHS Sector,Imperial College Healthcare NHS Trust,Du Cane Road,NA,NA,London,W12 0HS,https://www.imperial.nhs.uk/our-locations/hammersmith-hospital,E09000013,E02000372,-0.2347068190574646,51.51742172241211
Queen Charlotte's & Chelsea Hospital,NHS Sector,Imperial College Healthcare NHS Trust,Du Cane Road,NA,NA,London,W12 0HS,https://www.imperial.nhs.uk/our-locations/queen-charlottes-and-chelsea-hospital,E09000013,E02000372,-0.2347068190574646,51.51742172241211
Bloxwich Hospital ,NHS Sector,Dudley and Walsall Mental Health Partnership NHS Trust,Reeves Street,NA,NA,Walsall,WS3 2JJ,NA,E08000030,E02002117,-2.004830837249756,52.61375427246094
Dorothy Pattison Hospital,NHS Sector,Dudley and Walsall Mental Health Partnership NHS Trust,Alumwell Close,NA,NA,Walsall,WS2 9XH,NA,E08000030,E02002135,-2.0018904209136963,52.58326721191406
Bushey Fields Hospital,NHS Sector,Dudley and Walsall Mental Health Partnership NHS Trust,Bushey Fields Road,NA,NA,Dudley,DY1 2LZ,NA,E08000027,E02002012,-2.116838216781616,52.50290298461914
Moseley Hall Hospital,NHS Sector,Birmingham Community Healthcare NHS Foundation Trust,NA,Alcester Road,NA,Birmingham,B13 8JL,http://www.bhamcommunity.nhs.uk,E08000025,E02001918,-1.8928769826889038,52.445926666259766
West Heath Hospital,NHS Sector,Birmingham Community Healthcare NHS Foundation Trust,West Heath Hospital,Rednal Road,NA,Birmingham,B38 8HR,NA,E08000025,E02001953,-1.9537638425827026,52.39820861816406
Edward Street Hospital,NHS Sector,Black Country Partnership NHS Foundation Trust,Edward Street,Edward Street,NA,West Bromwich,B70 8NL,http://www.bcpft.nhs.uk,E08000028,E02002061,-1.9987335205078125,52.51922607421875
Heath Lane Hospital,NHS Sector,Black Country Partnership NHS Foundation Trust,Heath Lane,NA,NA,West Bromwich,B71 2BG,NA,E08000028,E02002052,-1.9919805526733398,52.53797912597656
Hallam Street Hospital,NHS Sector,Black Country Partnership NHS Foundation Trust,Hallam Street,Hallam Street,NA,West Bromwich,B71 4NH,http://www.bcpft.nhs.uk,E08000028,E02002059,-1.9864252805709839,52.52781677246094
Elmhurst Intermediate Care Centre,NHS Sector,Mid Cheshire Hospitals NHS Foundation Trust,NA,Roehurst Lane,NA,Winsford,CW7 2DF,http://www.mcht.nhs.uk,E06000050,E02003888,-2.531615972518921,53.19568634033203
Workington Community Hospital,NHS Sector,North Cumbria Integrated Care NHS Foundation Trust,NA,Park Lane,NA,Workington,CA14 2RW,http://www.cumbriapartnership.nhs.uk,E07000026,E02003973,-3.5513269901275635,54.64269256591797
The John Howard Centre,NHS Sector,East London NHS Foundation Trust,Forensic Centre for Mental Health,12 Kenworthy Road,Homerton,London,E9 5TD,NA,E09000012,E02000362,-0.03770964592695236,51.54815673828125
Bridlington Hospital - City Health Care Partnership Cic,NHS Sector,City Health Care Partnership Cic,Bessingby Road,NA,NA,Bridlington,YO16 4QP,NA,E06000011,E02002686,-0.21572500467300415,54.08653259277344
Cygnet Hospital Bierley,NHS Sector,Cygnet Health Care Limited,Bierley Lane,NA,NA,Bradford,BD4 6AD,http://www.cygnethealth.co.uk/locations/bierley/,E08000032,E02002239,-1.7321012020111084,53.76850509643555
Nightingale Hospital,NHS Sector,Capio UK,11-19 Lisson Grove,Marylebone,NA,London,NW1 6SH,http://www.nightingalehospital.co.uk,E09000033,E02000968,-0.16512911021709442,51.521854400634766
St Augustine's Independent Hospital,NHS Sector,Cambian Healthcare Limited,Cambian Group,Cobridge Road,NA,Stoke-On-Trent,ST1 5JY,NA,E06000021,E02002961,-2.187804698944092,53.03343963623047
St Catherine's Hospital,NHS Sector,E-Logica Ltd,Church Road,NA,NA,Birkenhead,CH42 0LQ,NA,E08000015,E02001487,-3.0265161991119385,53.380035400390625
Abbey Sefton Hospital,NHS Sector,Abbey Sefton Hospital (University Hospital Aintree),University Hospital Aintree,Fazakerley Hospital,Lower Lane,Liverpool,L9 7AL,NA,E08000012,E02001351,-2.931089401245117,53.46632766723633
St James,Independent Sector,Solent NHS Trust,Locksway Road,NA,NA,Southsea,PO4 8LD,NA,E06000044,E02003540,-1.050118327140808,50.79695510864258
Westbourne Green Community Hospital,Independent Sector,Bradford Teaching Hospitals NHS Foundation Trust,26 Heaton Road,NA,NA,Bradford,BD8 8RA,NA,E08000032,E02002216,-1.7762253284454346,53.80730056762695
West Park Hospital,Independent Sector,The Royal Wolverhampton NHS Trust,Park Road West,NA,NA,Wolverhampton,WV1 4PW,http://www.wolvespct.nhs.uk/Services/Service_pages/West_Park.asp,E08000031,E02002165,-2.1412415504455566,52.58778762817383
Maryport Victoria Cottage Hospital,Independent Sector,North Cumbria Integrated Care NHS Foundation Trust,Victoria Cottage Hospital,Ewanrigg Road,NA,Maryport,CA15 8EJ,https://www.ncic.nhs.uk/,E07000026,E02003969,-3.49501895904541,54.70702362060547
Watergrove Day Hospital,Independent Sector,Pennine Care NHS Foundation Trust,Birch Hill Hospital,Birch Road,NA,Rochdale,OL12 9QB,NA,E08000005,E02001135,-2.1213715076446533,53.64026641845703
City And Hackney Centre For Mental Health,Independent Sector,East London NHS Foundation Trust,Homerton Row,NA,NA,London,E9 6SR,NA,E09000012,E02000363,-0.04608435556292534,51.55063247680664
Grantham & District Hospital,Independent Sector,Lincolnshire Community Health Services NHS Trust,101 Manthorpe Road,NA,NA,Grantham,NG31 8DG,NA,E07000141,E02005478,-0.6406991481781006,52.92108917236328
Eden Unit,Independent Sector,Birmingham and Solihull Mental Health NHS Foundation Trust,Fentham Road,"355 Slade Road, Erdington",NA,Birmingham,B23 6AL,http://www.bsmhft.nhs.uk,E08000025,E02001857,-1.8551775217056274,52.51944351196289
Doncaster Gate Hospital,Independent Sector,The Rotherham NHS Foundation Trust,Doncaster Gate,NA,NA,Rotherham,S65 1DA,NA,E08000018,E02001594,-1.3524163961410522,53.43000030517578
Elderly Day Hospital,Independent Sector,Central and North West London NHS Foundation Trust,2 Exmoor Street,NA,NA,London,W10 6BD,NA,E09000020,E02000578,-0.21723560988903046,51.52338790893555
Coltman Street Day Hospital,Independent Sector,Humber Teaching NHS Foundation Trust,39-42 Coltman Street,NA,NA,Hull,HU3 2SG,NA,E06000010,E02002681,-0.362000048160553,53.741336822509766
Parkside Lodge,Independent Sector,Leeds and York Partnership NHS Foundation Trust,16 Stanningley Road,NA,NA,Leeds,LS12 2HE,http://www.leedsandyorkpft.nhs.uk/,E08000035,E02002400,-1.5900110006332397,53.79930114746094
Woodlands Hospital,Independent Sector,Greater Manchester Mental Health NHS Foundation Trust,Peel Lane,"Meadowstreet Lane, off Peel Lane",NA,Manchester,M28 0FE,NA,E08000006,E02001160,-2.4251973628997803,53.52815628051758
Wathwood Hospital,Independent Sector,Nottinghamshire Healthcare NHS Foundation Trust,Gipsy Green Lane,Wath-Upon-Dearne,NA,Rotherham,S63 7TQ,NA,E08000018,E02001579,-1.3423397541046143,53.49095916748047
Highbury Hospital,Independent Sector,Nottinghamshire Healthcare NHS Foundation Trust,Highbury Road,NA,NA,Nottingham,NG6 9DR,http://www.nottinghamshirehealthcare.nhs.uk/highbury,E06000018,E02002871,-1.1918399333953857,52.9930419921875
The Longley Centre,NHS Sector,Sheffield Health and Social Care NHS Foundation Trust,NA,Norwood Grange Drive,NA,Sheffield,S5 7JT,http://www.shsc.nhs.uk,E08000019,E02001625,-1.460142970085144,53.41022872924805
Leek Moorlands Hospital,Independent Sector,Midlands Partnership NHS Foundation Trust,Ashbourne Road,NA,NA,Leek,ST13 5BQ,http://www.staffordshireandstokeontrent.nhs.uk/Services/leek-moorlands-hospital.htm,E07000198,E02006204,-2.009697914123535,53.10279083251953
Pembleton Unit,Independent Sector,Coventry and Warwickshire Partnership NHS Trust,The Manor Site,Manor Court Avenue,NA,Nuneaton,CV11 5HX,http://www.covwarkpt.nhs.uk,E07000219,E02006479,-1.4776939153671265,52.5269889831543
St Mary's Hospital,Independent Sector,Warrington and Halton Hospitals NHS Foundation Trust,St. Marys Hospital,Floyd Drive,NA,Warrington,WA2 8DB,NA,E06000007,E02002600,-2.5924346446990967,53.40608596801758
Haywood Hospital,Independent Sector,Midlands Partnership NHS Foundation Trust,High Lane,Burslem,NA,Stoke-On-Trent,ST6 7AG,https://www.mpft.nhs.uk/services/haywood-community-hospital,E06000021,E02002956,-2.1913983821868896,53.05694580078125
St. Leonards Hospital,Independent Sector,Norfolk and Suffolk NHS Foundation Trust,Newton Road,NA,NA,Sudbury,CO10 2RQ,NA,E07000200,E02006233,0.7363262176513672,52.03901672363281
Walton Hospital Rice Lane,Independent Sector,St Helens and Knowsley Hospitals NHS Trust,Rice Lane,NA,NA,Liverpool,L9 1NL,NA,E08000012,E02001352,-2.9617347717285156,53.45125198364258
"Spencer Private Hospitals, Margate",NHS Sector,East Kent Medical Services Ltd,Spencer Private Hospitals,Queen Elizabeth The Queen Mother Hospital,Ramsgate Road,Margate,CT9 4BG,http://www.spencerprivatehospitals.com,E07000114,E02005135,1.3904786109924316,51.377197265625
Burton Hospital,Independent Sector,University Hospital of Derby and Burton NHS Foundation Trust,Queens Hospital,Belvedere Road,NA,Burton-On-Trent,DE13 0RB,https://www.uhdb.nhs.uk/,E07000193,E02006137,-1.6563690900802612,52.817779541015625
Cygnet Hospital Beckton,Independent Sector,Cygnet Health Care Limited,NA,23 Tunnan Leys,Beckton,London,E6 6ZB,http://www.cygnethealth.co.uk/locations/beckton/,E09000025,E02000746,0.06491462141275406,51.51347351074219
Cygnet Hospital Derby,Independent Sector,Cygnet Health Care Limited,NA,City Gate,London Road,Derby,DE24 8WZ,www.cygnethealth.co.uk/locations/derby,E06000015,E02002819,-1.4552152156829834,52.907432556152344
Broadoak Unit,NHS Sector,Mersey Care NHS Foundation Trust,Broadoak Unit,Broadgreen Hospital Site,Thomas Drive,Liverpool,L14 3PJ,https://www.merseycare.nhs.uk/our-services/our-sites/broadoak-unit/,E08000012,E02001372,-2.895334243774414,53.410789489746094
Rathbone Hospital,NHS Sector,Mersey Care NHS Foundation Trust,Rathbone Hospital,Mill Lane,NA,Liverpool,L13 4AW,https://www.merseycare.nhs.uk/our-services/our-sites/rathbone-hospital/,E08000012,E02001378,-2.915574789047241,53.407569885253906
Priory Hospital Dewsbury,Independent Sector,Priory Group Limited,NA,York Road,Earlsheaton,Dewsbury,WF12 7LB,http://www.priorygroup.com/dewsbury,E08000034,E02002288,-1.6142386198043823,53.69366455078125
Forward House,NHS Sector,Birmingham and Solihull Mental Health NHS Foundation Trust,NA,"Entrance D, 71 Fentham Road",Erdington,Birmingham,B23 6AL,http://www.bsmhft.nhs.uk,E08000025,E02001857,-1.8551775217056274,52.51944351196289
"St Charles Hospital, Mental Health Unit",NHS Sector,Central and North West London NHS Foundation Trust,Mental Health Unit,Exmoor Street,NA,"Kensington and Chelsea, London",W10 6DZ,https://www.cnwl.nhs.uk/,E09000020,E02000578,-0.21720358729362488,51.522361755371094
The Manor Hospital,NHS Sector,Cambian Healthcare Limited,Central Drive,Shirebrook,NA,Mansfield,NG20 8BA,NA,E07000033,E02004051,-1.2181611061096191,53.201759338378906
Tamarind Centre,NHS Sector,Birmingham and Solihull Mental Health NHS Foundation Trust,NA,165 Yardley Green Road,Bordesley Green,Birmingham,B9 5PU,http://www.bsmhft.nhs.uk,E08000025,E02001889,-1.8390671014785767,52.475711822509766
Intensive Support Service ,NHS Sector,Sheffield Health and Social Care NHS Foundation Trust,NA,32 Firshill Rise,NA,Sheffield,S4 7BU,NA,E08000019,E02001629,-1.4674510955810547,53.40324401855469
The Lodge,NHS Sector,East London NHS Foundation Trust,NA,1 Crozier Terrace,NA,London,E9 6AT,NA,E09000012,E02000362,-0.04018094018101692,51.548377990722656
Child & Family Service,NHS Sector,Pennine Care NHS Foundation Trust,NA,Fairfield General Hospital,NA,Rochdale,BL9 7TD,https://www.penninecare.nhs.uk/your-services/child-and-adolescent-mental-health-services-camhs/,E08000002,E02001025,-2.255607843399048,53.600425720214844
Olive Eden Hospital,NHS Sector,Curocare Ltd Head Office,71 St. Pauls Road,NA,NA,London,N17 0ND,NA,E09000014,E02000398,-0.06148101016879082,51.60136413574219
Central Middlesex Hospital,Independent Sector,London North West University Healthcare NHS Trust,Acton Lane,Park Royal,NA,London,NW10 7NS,http://www.lnwh.nhs.uk,E09000005,E02000119,-0.26914629340171814,51.53093719482422
Ealing Hospital,Independent Sector,London North West University Healthcare NHS Trust,Uxbridge Road,NA,NA,Southall,UB1 3HW,https://www.lnwh.nhs.uk/,E09000009,E02000266,-0.34548112750053406,51.507606506347656
Caludon Centre,NHS Sector,Coventry and Warwickshire Partnership NHS Trust,NA,Clifford Bridge Road,NA,Coventry,CV2 2TE,https://www.covwarkpt.nhs.uk/caludon-centre,E08000026,E02001976,-1.4455196857452393,52.42244338989258
North Cambridgeshire Hospital - Cambridgeshire and Peterborough NHS Foundation Trust,NHS Sector,Cambridgeshire and Peterborough NHS Foundation Trust,NA,North Cambs Hospital,Churchill Road,Wisbech,PE13 3AB,http://www.cpft.nhs.uk,E07000010,E02003743,0.16392791271209717,52.66493606567383
Roseberry Park Hospital,Independent Sector,"Tees, Esk and Wear Valleys NHS Foundation Trust",Marton Road,NA,NA,Middlesbrough,TS4 3AF,NA,E06000002,E02002506,-1.2176517248153687,54.555721282958984
North Lincs Adult Mental Health Service - Access Team  including Crisis Resolution Service,NHS Sector,Rotherham Doncaster and South Humber NHS Foundation Trust,Great Oaks,Ashby High Street,NA,Scunthorpe,DN16 2JX,http://www.rdash.nhs.uk/services/our-services/adult-mental-health-services/adult-community-mental-he,E06000013,E02002763,-0.6385596990585327,53.566986083984375
Wotton Lawn Hospital,NHS Sector,Gloucestershire Health and Care NHS Foundation Trust,Wotton Lawn Hospital,Horton Road,NA,Gloucester,GL1 3WL,https://www.ghc.nhs.uk,E07000081,E02004637,-2.227879047393799,51.866966247558594
Dudley Urgent Care Centre,NHS Sector,Malling Health UK Limited,Russells Hall Hospital,Pensnett Road,NA,Dudley,DY1 2HQ,NA,E08000027,E02002012,-2.1185030937194824,52.50294876098633
"1b St Catherines Way, Gorleston",NHS Sector,Norfolk and Suffolk NHS Foundation Trust,Stepping Out,1B St Catherines Way,NA,Gorleston on Sea,NR31 7QB,http://www.nsft.nhs.uk,E07000145,E02005546,1.7169004678726196,52.57298278808594
Cygnet Hospital Sheffield,NHS Sector,Cygnet Health Care Limited,83 East Bank Road,NA,NA,Sheffield,S2 3PX,https://www.cygnethealth.co.uk/locations/cygnet-hospital-sheffield/,E08000019,E02001653,-1.4593790769577026,53.369598388671875
Windermere House Independent Hospital,NHS Sector,Barchester Healthcare Ltd,Birkdale Way,Newbridge Road,NA,Hull,HU9 2BH,NA,E06000010,E02002673,-0.30832526087760925,53.74993896484375
Castle Lodge Independent Hospital,NHS Sector,Barchester Healthcare Ltd,Noddle Hill Way,Bransholme,NA,Hull,HU7 4FG,NA,E06000010,E02002655,-0.3070729374885559,53.78861999511719
Birmingham Women's Hospital,Independent Sector,Birmingham Women's and Children's NHS Foundation Trust,Mindelsohn Way,Edgbaston,NA,Birmingham,B15 2TG,NA,E08000025,E02001913,-1.9428908824920654,52.4532356262207
West Valley Hospital,NHS Sector,Ramsay Healthcare UK Operations Limited,"Level 9, Interchange",81-85 Wellesley Road,NA,Croydon,CR0 2RD,https://www.westvalleyhospital.co.uk/,E09000008,E02000213,-0.10036391019821167,51.38014221191406
Redcar Primary Care Hospital,Independent Sector,"Tees, Esk and Wear Valleys NHS Foundation Trust",West Dyke Road,NA,NA,Redcar,TS10 4NW,NA,E06000003,E02002519,-1.0687766075134277,54.59928894042969
Ashfield Community Hospital,Independent Sector,Sherwood Forest Hospitals NHS Foundation Trust,Portland Street,Kirkby-In-Ashfield,NA,Nottingham,NG17 7AB,NA,E07000170,E02005826,-1.2466495037078857,53.10095977783203
Manchester Private Hospital,NHS Sector,Manchester Private Clinic Ltd,New Court,Regents Place,Windsor Street,Salford,M5 4HB,http://www.manchesterprivatehospital.co.uk,E08000006,E02001184,-2.278548240661621,53.47900390625
Manchester Royal Infirmary,Independent Sector,Manchester University NHS Foundation Trust,Oxford Road,NA,NA,Manchester,M13 9WL,https://mft.nhs.uk/mri/,E08000003,E02001062,-2.22489070892334,53.461673736572266
Royal Manchester Children's Hospital,Independent Sector,Manchester University NHS Foundation Trust,Oxford Road,NA,NA,Manchester,M13 9WL,https://mft.nhs.uk/rmch/,E08000003,E02001062,-2.224475860595703,53.46046829223633
Manchester Royal Eye Hospital,Independent Sector,Manchester University NHS Foundation Trust,Oxford Road,NA,NA,Manchester,M13 9WL,https://mft.nhs.uk/royal-eye/,E08000003,E02001062,-2.223982334136963,53.46088790893555
St Mary's Hospital,Independent Sector,Manchester University NHS Foundation Trust,Oxford Road,NA,NA,Manchester,M13 9WL,https://mft.nhs.uk/saint-marys/,E08000003,E02001062,-2.2238965034484863,53.4611701965332
Wythenshawe Hospital,Independent Sector,Manchester University NHS Foundation Trust,Southmoor Road,Wythenshawe,NA,Manchester,M23 9LT,https://mft.nhs.uk/wythenshawe/,E08000003,E02001095,-2.2918150424957275,53.388851165771484
SpaMedica Eye Hospital Bolton,NHS Sector,Spamedica,43 Churchgate,NA,NA,Bolton,BL1 1HU,https://www.spamedica.co.uk/,E08000001,E02000999,-2.4258077144622803,53.579933166503906
Heartlands Hospital,Independent Sector,University Hospitals Birmingham NHS Foundation Trust,Bordesley Green East,Bordesley Green,NA,Birmingham,B9 5SS,https://www.uhb.nhs.uk,E08000025,E02001892,-1.8299510478973389,52.480220794677734
Queens Hospital,NHS Sector,Virgin Care Ltd,Belvedere Road,NA,NA,Burton-On-Trent,DE13 0RB,NA,E07000193,E02006137,-1.6563690900802612,52.817779541015625
Felixstowe Hospital,Independent Sector,East Suffolk and North Essex NHS Foundation Trust,Constable Road,NA,NA,Felixstowe,IP11 7HJ,NA,E07000244,E02006301,1.3559541702270508,51.96376419067383
All Saints Hospital,NHS Sector,Elysium Healthcare,All Saints Hospital,159 Grange Avenue,NA,Oldham,OL8 4EF,NA,E08000004,E02006860,-2.1274170875549316,53.52851867675781
One Health Group - Kinvara Hospital,NHS Sector,One Health Group,Crantock House,Clifton Lane,NA,Rotherham,S65 2AJ,NA,E08000018,E02001594,-1.3462154865264893,53.428043365478516
Birmingham Children's Hospital,Independent Sector,Oxford University Hospitals NHS Foundation Trust,Steelhouse Lane,NA,NA,Birmingham,B4 6NW,NA,E08000025,E02001876,-1.8933732509613037,52.48423385620117
Royal Liverpool University Dental Hospital,Independent Sector,Liverpool University Hospitals NHS Foundation Trust,Dental Hospital,Pembroke Place,NA,Liverpool,L3 5PS,NA,E08000012,E02001377,-2.9670073986053467,53.40892791748047
Broadgreen Hospital,Independent Sector,Liverpool University Hospitals NHS Foundation Trust,Thomas Drive,NA,NA,Liverpool,L14 3LB,NA,E08000012,E02001372,-2.897974729537964,53.411155700683594
Trent PTS - Bilborough,Independent Sector,Trent Pts,NA,Artic House,141 Glaisdale Drive,Bilborough,NG8 4GY,http://www.trentpts.co.uk,E06000018,E02002892,-1.233405590057373,52.957725524902344
Community Healthcare Ltd - John Coupland Hospital,NHS Sector,Community Healthcare Ltd,John Coupland Hospital,Ropery Road,NA,Gainsborough,DN21 2TJ,NA,E07000142,E02005495,-0.7847763895988464,53.41184616088867
